{
  "locations": [
    { "name": "New York City", "latitude": 40.7128, "longitude": -74.006 },
    { "name": "Los Angeles", "latitude": 34.0522, "longitude": -118.2437 },
    { "name": "Chicago", "latitude": 41.8781, "longitude": -87.6298 },
    { "name": "Houston", "latitude": 29.7604, "longitude": -95.3698 },
    { "name": "Phoenix", "latitude": 33.4484, "longitude": -112.074 },
    { "name": "Philadelphia", "latitude": 39.9526, "longitude": -75.1652 },
    { "name": "San Antonio", "latitude": 29.4241, "longitude": -98.4936 },
    { "name": "San Diego", "latitude": 32.7157, "longitude": -117.1611 },
    { "name": "Dallas", "latitude": 32.7767, "longitude": -96.797 },
    { "name": "San Jose", "latitude": 37.3382, "longitude": -121.8863 },
    { "name": "Austin", "latitude": 30.2672, "longitude": -97.7431 },
    { "name": "Jacksonville", "latitude": 30.3322, "longitude": -81.6557 },
    { "name": "San Francisco", "latitude": 37.7749, "longitude": -122.4194 },
    { "name": "Columbus", "latitude": 39.9612, "longitude": -82.9988 },
    { "name": "Fort Worth", "latitude": 32.7555, "longitude": -97.3308 },
    { "name": "Indianapolis", "latitude": 39.7684, "longitude": -86.1581 },
    { "name": "Charlotte", "latitude": 35.2271, "longitude": -80.8431 },
    { "name": "Seattle", "latitude": 47.6062, "longitude": -122.3321 },
    { "name": "Denver", "latitude": 39.7392, "longitude": -104.9903 },
    { "name": "Washington, D.C.", "latitude": 38.9072, "longitude": -77.0369 },
    { "name": "Boston", "latitude": 42.3601, "longitude": -71.0589 },
    { "name": "El Paso", "latitude": 31.7619, "longitude": -106.485 },
    { "name": "Nashville", "latitude": 36.1627, "longitude": -86.7816 },
    { "name": "Detroit", "latitude": 42.3314, "longitude": -83.0458 },
    { "name": "Oklahoma City", "latitude": 35.4676, "longitude": -97.5164 },
    { "name": "Las Vegas", "latitude": 36.1699, "longitude": -115.1398 },
    { "name": "Memphis", "latitude": 35.1495, "longitude": -90.049 },
    { "name": "Louisville", "latitude": 38.2527, "longitude": -85.7585 },
    { "name": "Baltimore", "latitude": 39.2904, "longitude": -76.6122 },
    { "name": "Portland", "latitude": 45.5051, "longitude": -122.675 },
    { "name": "Milwaukee", "latitude": 43.0389, "longitude": -87.9065 },
    { "name": "Albuquerque", "latitude": 35.0844, "longitude": -106.6504 },
    { "name": "Tucson", "latitude": 32.2226, "longitude": -110.9747 },
    { "name": "Fresno", "latitude": 36.7378, "longitude": -119.7871 },
    { "name": "Sacramento", "latitude": 38.5816, "longitude": -121.4944 },
    { "name": "Kansas City", "latitude": 39.0997, "longitude": -94.5786 },
    { "name": "Dhaka", "latitude": 23.8103, "longitude": 90.4125 },
    { "name": "Chittagong", "latitude": 22.3475, "longitude": 91.8123 },
    { "name": "Sylhet", "latitude": 24.8949, "longitude": 91.8687 },
    { "name": "Rangpur", "latitude": 25.7439, "longitude": 89.2752 },
    { "name": "Khulna", "latitude": 22.8456, "longitude": 89.5403 },
    { "name": "Barishal", "latitude": 22.701, "longitude": 90.3535 },
    { "name": "Rajshahi", "latitude": 24.3745, "longitude": 88.6042 },
    { "name": "Kolkata", "latitude": 22.5726, "longitude": 88.3639 },
    { "name": "Mumbai", "latitude": 19.076, "longitude": 72.8777 },
    { "name": "Malaysia", "latitude": 3.139, "longitude": 101.6869 },
    { "name": "China", "latitude": 35.8617, "longitude": 104.1954 },
    { "name": "Punjab", "latitude": 31.1471, "longitude": 75.3412 },
    { "name": "Pakistan", "latitude": 30.3753, "longitude": 69.3451 }
  ]
}
